{"type": "FeatureCollection", "features": [{"geometry": {"type": "Point", "coordinates": [20.5105166, 54.7066422]}, "type": "Feature", "properties": {"count": 1, "city": "Калининград", "userid": [14374], "names": ["swdartvader"]}}, {"geometry": {"type": "Point", "coordinates": [26.9158333, 56.5711111]}, "type": "Feature", "properties": {"count": 1, "city": "Malta", "userid": [17841], "names": ["Vladlensi"]}}, {"geometry": {"type": "Point", "coordinates": [27.1612812, 56.3467262]}, "type": "Feature", "properties": {"count": 1, "city": "Malta", "userid": [17841], "names": ["Vladlensi"]}}, {"geometry": {"type": "Point", "coordinates": [27.561863, 53.902253]}, "type": "Feature", "properties": {"count": 7, "city": "Минск", "userid": [11086, 15169, 8160, 7948, 15663, 13026, 8382], "names": ["kog9", "ulisgod", "sdm98", "Aleksander", "qwerchenok", "alphart", "Komяpa"]}}, {"geometry": {"type": "Point", "coordinates": [30.3153628, 59.9393657]}, "type": "Feature", "properties": {"count": 15, "city": "Санкт-Петербург", "userid": [13358, 16897, 17797, 17482, 9720, 14697, 11482, 593, 17588, 17279, 16669, 17781, 13547, 9137, 7508], "names": ["Foxxxy", "SergeyRyzhkov", "avk", "МНС", "username", "Sasfeat", "avkotochigov", "Egor", "amnesiac", "Gleb88", "Эдуард Казаков", "ngkis_support", "DruzhA", "biogis", "Журавлёв"]}}, {"geometry": {"type": "Point", "coordinates": [30.5234937, 50.4499875]}, "type": "Feature", "properties": {"count": 4, "city": "Киев", "userid": [11172, 6929, 15, 17228], "names": ["dime1", "readt", "Андрей", "bys"]}}, {"geometry": {"type": "Point", "coordinates": [30.7296333, 46.4713468]}, "type": "Feature", "properties": {"count": 3, "city": "Одесса", "userid": [17009, 15470, 17350], "names": ["smaragd23", "Zahar", "luzhanov"]}}, {"geometry": {"type": "Point", "coordinates": [30.95077, 50.3512101]}, "type": "Feature", "properties": {"count": 1, "city": "Борисполь", "userid": [10600], "names": ["Franklin1967"]}}, {"geometry": {"type": "Point", "coordinates": [31.294332, 51.494099]}, "type": "Feature", "properties": {"count": 1, "city": "Чернигов", "userid": [10955], "names": ["Alexander P. Moroz"]}}, {"geometry": {"type": "Point", "coordinates": [32.0549595, 54.7940612]}, "type": "Feature", "properties": {"count": 3, "city": "Смоленск", "userid": [13685, 12618, 16543], "names": ["OLEG614", "p32rus", "Pete_Stepanov"]}}, {"geometry": {"type": "Point", "coordinates": [33.0749718, 68.9706637]}, "type": "Feature", "properties": {"count": 1, "city": "Мурманск", "userid": [17506], "names": ["Kotlin71"]}}, {"geometry": {"type": "Point", "coordinates": [33.3941061, 47.9059085]}, "type": "Feature", "properties": {"count": 1, "city": "Кривий Ріг", "userid": [11791], "names": ["ymr3R9Jge"]}}, {"geometry": {"type": "Point", "coordinates": [33.46607, 51.77788]}, "type": "Feature", "properties": {"count": 3, "city": "Воронеж", "userid": [12627, 6944, 7405], "names": ["Константин Силкин", "Hawk", "Catharsis"]}}, {"geometry": {"type": "Point", "coordinates": [33.5224182, 44.6114503]}, "type": "Feature", "properties": {"count": 2, "city": "Севастополь", "userid": [17644, 7371], "names": ["c.codeine", "Qwerty Neo"]}}, {"geometry": {"type": "Point", "coordinates": [34.1586871, 44.4970713]}, "type": "Feature", "properties": {"count": 1, "city": "ялта", "userid": [17716], "names": ["runastep"]}}, {"geometry": {"type": "Point", "coordinates": [34.3054, 54.0764]}, "type": "Feature", "properties": {"count": 1, "city": "Киров", "userid": [16673], "names": ["t0pep0"]}}, {"geometry": {"type": "Point", "coordinates": [34.5503455, 49.5895681]}, "type": "Feature", "properties": {"count": 1, "city": "Полтава", "userid": [10929], "names": ["edoroe"]}}, {"geometry": {"type": "Point", "coordinates": [35.2262542, 54.741462]}, "type": "Feature", "properties": {"count": 1, "city": "Юхнов", "userid": [11386], "names": ["Hornbeam"]}}, {"geometry": {"type": "Point", "coordinates": [35.8866779, 56.7339523]}, "type": "Feature", "properties": {"count": 1, "city": "Бурашево", "userid": [7872], "names": ["Пётр Дубоделов"]}}, {"geometry": {"type": "Point", "coordinates": [35.9208284, 56.858675]}, "type": "Feature", "properties": {"count": 2, "city": "Тверь", "userid": [14105, 9340], "names": ["pacman541", "midorenko"]}}, {"geometry": {"type": "Point", "coordinates": [36.179602, 51.739433]}, "type": "Feature", "properties": {"count": 1, "city": "Курск", "userid": [8896], "names": ["xar4enkkoff"]}}, {"geometry": {"type": "Point", "coordinates": [36.2303797, 49.99026]}, "type": "Feature", "properties": {"count": 3, "city": "Харьков", "userid": [8519, 12591, 17037], "names": ["HasT", "Anton_Kh", "Shurik1990"]}}, {"geometry": {"type": "Point", "coordinates": [37.3168873, 44.8942722]}, "type": "Feature", "properties": {"count": 1, "city": "Анапа", "userid": [17776], "names": ["Stepan_Sotnikov"]}}, {"geometry": {"type": "Point", "coordinates": [37.6139685, 54.8347213]}, "type": "Feature", "properties": {"count": 1, "city": "Пущино", "userid": [10287], "names": ["Dryomys"]}}, {"geometry": {"type": "Point", "coordinates": [37.6158717, 54.1938261]}, "type": "Feature", "properties": {"count": 1, "city": "Тула", "userid": [14607], "names": ["Sofia_S"]}}, {"geometry": {"type": "Point", "coordinates": [37.6187012, 55.7516147]}, "type": "Feature", "properties": {"count": 54, "city": "Москва", "userid": [12280, 10, 3, 2, 207, 18016, 17515, 538, 1619, 2611, 6545, 6605, 6663, 6689, 17124, 7029, 15748, 10642, 7392, 8462, 15137, 15078, 17592, 11843, 16107, 8766, 8125, 14819, 8224, 8761, 8411, 8983, 8449, 8430, 13779, 8981, 8512, 8649, 10280, 8940, 9279, 9426, 11575, 17639, 12002, 9620, 10928, 10794, 10426, 12369, 12834, 11062, 10385, 10485], "names": ["Hatt", "Ruslan", "taimyr", "Максим Дубинин", "Maka", "SHAPI", "hiin", "Boris", "Mitrich", "alexandr cherepanov", "aldggl", "esmo", "godnik", "beast", "rotor101", "Konstantin Tokar", "IRA", "parshin", "Evgenia", "Michigan", "vasnake", "Kat", "sid0rina", "bartimeus07", "GWolf", "bms", "flylive", "old_wolf_09", "ГИС программист", "Andrey Zhukov", "geosilent", "Aleksandr Dezhin", "Andrew", "Александр Мурый", "sysrepos", "kabanin", "Variant", "Дмитрий Барышников", "freeman", "amir", "Arvin", "nextstopsun", "Zverik", "besyakin", "dab", "Slinger", "gadkiy_uut", "eketerina", "Nap", "grozhentsov", "beard", "novia", "Чулан", "GreatDeal"]}}, {"geometry": {"type": "Point", "coordinates": [37.7087142, 55.5571496]}, "type": "Feature", "properties": {"count": 1, "city": "Видное", "userid": [17595], "names": ["antpal"]}}, {"geometry": {"type": "Point", "coordinates": [37.754272, 55.444794]}, "type": "Feature", "properties": {"count": 1, "city": "Домодедово", "userid": [17062], "names": ["stavropol26"]}}, {"geometry": {"type": "Point", "coordinates": [37.9163892, 59.1286965]}, "type": "Feature", "properties": {"count": 1, "city": "Череповец", "userid": [11252], "names": ["Petruxin"]}}, {"geometry": {"type": "Point", "coordinates": [38.4411898, 55.8553511]}, "type": "Feature", "properties": {"count": 1, "city": "Ногинск", "userid": [9775], "names": ["Алекс"]}}, {"geometry": {"type": "Point", "coordinates": [38.9716537, 45.031826]}, "type": "Feature", "properties": {"count": 2, "city": "Краснодар", "userid": [6819, 17714], "names": ["Evgeniy", "Александр_kiterunner"]}}, {"geometry": {"type": "Point", "coordinates": [39.0718875, 44.0984747]}, "type": "Feature", "properties": {"count": 1, "city": "Туапсе", "userid": [859], "names": ["Vmatveev"]}}, {"geometry": {"type": "Point", "coordinates": [39.2646882, 51.7126377]}, "type": "Feature", "properties": {"count": 3, "city": "Воронеж", "userid": [6944, 12627, 7405], "names": ["Hawk", "Константин Силкин", "Catharsis"]}}, {"geometry": {"type": "Point", "coordinates": [39.4166667, 57.1846408]}, "type": "Feature", "properties": {"count": 1, "city": "Ростов", "userid": [18046], "names": ["Виктор_Суворов"]}}, {"geometry": {"type": "Point", "coordinates": [39.5782312, 52.5998491]}, "type": "Feature", "properties": {"count": 1, "city": "Липецк", "userid": [3866], "names": ["gis"]}}, {"geometry": {"type": "Point", "coordinates": [39.7022857, 47.2248606]}, "type": "Feature", "properties": {"count": 1, "city": "Ростов-на-Дону", "userid": [17705], "names": ["off"]}}, {"geometry": {"type": "Point", "coordinates": [39.8933705, 57.6263877]}, "type": "Feature", "properties": {"count": 2, "city": "Ярославль", "userid": [12730, 153], "names": ["o7oxa", "dwarwood"]}}, {"geometry": {"type": "Point", "coordinates": [40.5371212, 64.5430227]}, "type": "Feature", "properties": {"count": 2, "city": "Архангельск", "userid": [9689, 10556], "names": ["ego2", "rhot"]}}, {"geometry": {"type": "Point", "coordinates": [40.9268459, 57.7679703]}, "type": "Feature", "properties": {"count": 1, "city": "Кострома", "userid": [7814], "names": ["xen87"]}}, {"geometry": {"type": "Point", "coordinates": [41.22482, 51.1544843]}, "type": "Feature", "properties": {"count": 1, "city": "Елань-Колено", "userid": [9386], "names": ["vsugig"]}}, {"geometry": {"type": "Point", "coordinates": [41.9690934, 45.0433245]}, "type": "Feature", "properties": {"count": 1, "city": "Ставрополь", "userid": [7816], "names": ["retmike"]}}, {"geometry": {"type": "Point", "coordinates": [42.7237033, 43.9143583]}, "type": "Feature", "properties": {"count": 1, "city": "Кисловодск", "userid": [17825], "names": ["Runneseker"]}}, {"geometry": {"type": "Point", "coordinates": [43.9902091, 56.3241427]}, "type": "Feature", "properties": {"count": 6, "city": "Нижний Новгород", "userid": [17856, 13899, 11122, 13482, 18010, 9926], "names": ["olololo", "juffin_h", "Monstria", "jerry-maori", "LevLimin", "1985student"]}}, {"geometry": {"type": "Point", "coordinates": [45.0000428, 53.1998079]}, "type": "Feature", "properties": {"count": 1, "city": "Пенза", "userid": [12865], "names": ["aspirant-1"]}}, {"geometry": {"type": "Point", "coordinates": [45.1838307, 54.1867088]}, "type": "Feature", "properties": {"count": 2, "city": "Саранск", "userid": [10832, 11688], "names": ["Siygal", "4endyr'"]}}, {"geometry": {"type": "Point", "coordinates": [46.0043889, 51.5499223]}, "type": "Feature", "properties": {"count": 2, "city": "Саратов", "userid": [7975, 14045], "names": ["vveco", "giser"]}}, {"geometry": {"type": "Point", "coordinates": [47.2454815, 56.1311738]}, "type": "Feature", "properties": {"count": 1, "city": "Чебоксары", "userid": [10639], "names": ["donmisha"]}}, {"geometry": {"type": "Point", "coordinates": [47.4961218, 42.97554]}, "type": "Feature", "properties": {"count": 4, "city": "Махачкала", "userid": [14628, 7002, 16506, 15670], "names": ["Nariman", "bashir", "ali_vlad", "Эльдар"]}}, {"geometry": {"type": "Point", "coordinates": [47.8953961, 56.6327144]}, "type": "Feature", "properties": {"count": 1, "city": "Йошкар-Ола", "userid": [11109], "names": ["Александр Фадеев"]}}, {"geometry": {"type": "Point", "coordinates": [48.0374538, 46.3489385]}, "type": "Feature", "properties": {"count": 3, "city": "Астрахань", "userid": [12846, 10625, 18007], "names": ["Кирилл R.", "kamennovs", "oldbay"]}}, {"geometry": {"type": "Point", "coordinates": [49.1242266, 55.7823547]}, "type": "Feature", "properties": {"count": 7, "city": "Казань", "userid": [17929, 17861, 10084, 6597, 8825, 9142, 10457], "names": ["alexsv", "Павиан из Найроби", "gamm", "KolesovDmitry", "rnazarov", "marsel", "ErnieBoyd"]}}, {"geometry": {"type": "Point", "coordinates": [49.6038982, 54.2188995]}, "type": "Feature", "properties": {"count": 1, "city": "Димитровград", "userid": [17014], "names": ["RW4LR"]}}, {"geometry": {"type": "Point", "coordinates": [49.6639029, 58.6035257]}, "type": "Feature", "properties": {"count": 1, "city": "Киров", "userid": [16673], "names": ["t0pep0"]}}, {"geometry": {"type": "Point", "coordinates": [49.8466787, 40.3925137]}, "type": "Feature", "properties": {"count": 1, "city": "Baku", "userid": [8589], "names": ["moti"]}}, {"geometry": {"type": "Point", "coordinates": [50.1142415, 53.1984756]}, "type": "Feature", "properties": {"count": 1, "city": "Самара", "userid": [6742], "names": ["andreichernov"]}}, {"geometry": {"type": "Point", "coordinates": [50.834958, 61.6689734]}, "type": "Feature", "properties": {"count": 1, "city": "Сыктывкар", "userid": [8883], "names": ["А.Серов"]}}, {"geometry": {"type": "Point", "coordinates": [53.1353538, 54.6857846]}, "type": "Feature", "properties": {"count": 1, "city": "Урал", "userid": [9130], "names": ["rimbo"]}}, {"geometry": {"type": "Point", "coordinates": [53.684243, 63.5624585]}, "type": "Feature", "properties": {"count": 2, "city": "Ухта", "userid": [14513, 11953], "names": ["sergtor", "Старый Йети"]}}, {"geometry": {"type": "Point", "coordinates": [55.9477285, 54.7262869]}, "type": "Feature", "properties": {"count": 1, "city": "Уфа", "userid": [9725], "names": ["gimran"]}}, {"geometry": {"type": "Point", "coordinates": [55.9818759, 55.0311435]}, "type": "Feature", "properties": {"count": 1, "city": "Благовещенск", "userid": [6951], "names": ["Airiss"]}}, {"geometry": {"type": "Point", "coordinates": [56.2405888, 54.3944938]}, "type": "Feature", "properties": {"count": 1, "city": "Урал", "userid": [9130], "names": ["rimbo"]}}, {"geometry": {"type": "Point", "coordinates": [56.2467244, 58.0149643]}, "type": "Feature", "properties": {"count": 4, "city": "Пермь", "userid": [10534, 12014, 10514, 15499], "names": ["kuzkok", "Sygsky", "Grace2", "oks1025"]}}, {"geometry": {"type": "Point", "coordinates": [57.4261539, 51.1728975]}, "type": "Feature", "properties": {"count": 1, "city": "Урал", "userid": [9130], "names": ["rimbo"]}}, {"geometry": {"type": "Point", "coordinates": [58.4738015, 51.2305015]}, "type": "Feature", "properties": {"count": 1, "city": "Орск", "userid": [11276], "names": ["ginpetr"]}}, {"geometry": {"type": "Point", "coordinates": [60.6082502, 56.8391034]}, "type": "Feature", "properties": {"count": 5, "city": "Екатеринбург", "userid": [15335, 8068, 11063, 9343, 8600], "names": ["grig27", "reasonat", "stepankuzmin", "Vladimir_R", "Воронин С.В."]}}, {"geometry": {"type": "Point", "coordinates": [61.5516635, 54.0844563]}, "type": "Feature", "properties": {"count": 1, "city": "Троицк", "userid": [14636], "names": ["IOWq750"]}}, {"geometry": {"type": "Point", "coordinates": [65.5819746, 57.1369473]}, "type": "Feature", "properties": {"count": 1, "city": "Тюмень", "userid": [12068], "names": ["Vaska72"]}}, {"geometry": {"type": "Point", "coordinates": [66.6157469, 66.5375387]}, "type": "Feature", "properties": {"count": 1, "city": "Салехард", "userid": [12], "names": ["Сергей"]}}, {"geometry": {"type": "Point", "coordinates": [69.0191573, 61.0034602]}, "type": "Feature", "properties": {"count": 3, "city": "Ханты-Мансийск", "userid": [7430, 7967, 17604], "names": ["bolotoved", "wickedshark", "vden"]}}, {"geometry": {"type": "Point", "coordinates": [73.3714883, 54.9913752]}, "type": "Feature", "properties": {"count": 3, "city": "Омск", "userid": [7033, 17368, 15557], "names": ["mamont80", "rashid_s", "evgevin"]}}, {"geometry": {"type": "Point", "coordinates": [82.9234476, 55.0282215]}, "type": "Feature", "properties": {"count": 10, "city": "Новосибирск", "userid": [8938, 13579, 18038, 8532, 7451, 9485, 17032, 1321, 17349, 12572], "names": ["Aerial_mapper", "mexango", "tonal", "Sibit", "esasha", "Rayna", "maks24", "AndreyL", "AlexeyKW", "nikomuro"]}}, {"geometry": {"type": "Point", "coordinates": [83.7784296, 53.3474212]}, "type": "Feature", "properties": {"count": 1, "city": "Барнаул", "userid": [10175], "names": ["biryukov"]}}, {"geometry": {"type": "Point", "coordinates": [84.9523238, 56.4885921]}, "type": "Feature", "properties": {"count": 1, "city": "Томск", "userid": [349], "names": ["Филиппов Владислав"]}}, {"geometry": {"type": "Point", "coordinates": [86.0872319, 55.3551248]}, "type": "Feature", "properties": {"count": 1, "city": "Кемерово", "userid": [17293], "names": ["ane4ka_66"]}}, {"geometry": {"type": "Point", "coordinates": [92.8702365, 56.0082556]}, "type": "Feature", "properties": {"count": 3, "city": "Красноярск", "userid": [9928, 17095, 16407], "names": ["bichek", "alex_m", "shock01"]}}, {"geometry": {"type": "Point", "coordinates": [94.7534432, 55.9043031]}, "type": "Feature", "properties": {"count": 1, "city": "Урал", "userid": [9130], "names": ["rimbo"]}}, {"geometry": {"type": "Point", "coordinates": [127.527158, 50.2905287]}, "type": "Feature", "properties": {"count": 1, "city": "Благовещенск", "userid": [6951], "names": ["Airiss"]}}, {"geometry": {"type": "Point", "coordinates": [130.0858308, 49.4224283]}, "type": "Feature", "properties": {"count": 1, "city": "Архара", "userid": [6685], "names": ["Михаил Парилов"]}}, {"geometry": {"type": "Point", "coordinates": [131.8854009, 43.1152835]}, "type": "Feature", "properties": {"count": 3, "city": "Владивосток", "userid": [2904, 13152, 7511], "names": ["Ivor", "doujin", "JMc"]}}, {"geometry": {"type": "Point", "coordinates": [135.07694, 48.481402]}, "type": "Feature", "properties": {"count": 3, "city": "Хабаровск", "userid": [17750, 7760, 11033], "names": ["Egger", "Игорь Черниенко", "Institor"]}}, {"geometry": {"type": "Point", "coordinates": [158.646409, 53.0238414]}, "type": "Feature", "properties": {"count": 1, "city": "Петропавловск-Камчатский", "userid": [594], "names": ["Pilot"]}}]}